{
  "type": "FeatureCollection",
  "generator": "overpass-ide",
  "copyright": "The data included in this document is from www.openstreetmap.org. The data is made available under ODbL.",
  "timestamp": "2019-04-30T14:26:02Z",
  "features": [
    {
      "type": "Feature",
      "properties": {
        "@id": "node/192105120",
        "amenity": "place_of_worship",
        "name": "上川神社(頓宮)",
        "religion": "shinto"
      },
      "geometry": {
        "type": "Point",
        "coordinates": [
          142.3591341,
          43.7752622
        ]
      },
      "id": "node/192105120"
    },
    {
      "type": "Feature",
      "properties": {
        "@id": "node/200452972",
        "amenity": "place_of_worship",
        "religion": "shinto"
      },
      "geometry": {
        "type": "Point",
        "coordinates": [
          142.4038741,
          43.7578229
        ]
      },
      "id": "node/200452972"
    },
    {
      "type": "Feature",
      "properties": {
        "@id": "node/251381460",
        "addr:block_number": "160",
        "addr:city": "奈良市",
        "addr:postcode": "630-8212",
        "addr:province": "奈良県",
        "addr:quarter": "春日野町",
        "amenity": "place_of_worship",
        "denomination": "buddhist",
        "fax": "+81 742 27 2114",
        "heritage": "1",
        "heritage:operator": "whc",
        "historic": "heritage",
        "name": "春日大社",
        "name:de": "Kasuga-Taisha",
        "name:en": "Kasuga Shrine",
        "name:es": "Kasuga-taisha",
        "name:ja": "春日大社",
        "name:ja_kana": "かすがたいしゃ",
        "name:ja_rm": "Kasuga-taisha",
        "name:ko": "가스가타이샤",
        "name:ru": "Касуга тайся",
        "name:th": "ศาลเจ้าคะซุงะ",
        "name:zh": "春日大社",
        "opening_hours": "Mo-Su 06:00-17:00",
        "phone": "+81 742 22 7788",
        "religion": "shinto",
        "tourism": "attraction",
        "website": "http://www.kasugataisha.or.jp/",
        "wikidata": "Q714559",
        "wikipedia": "ja:春日大社",
        "wikipedia:en": "Kasuga-taisha"
      },
      "geometry": {
        "type": "Point",
        "coordinates": [
          135.8483635,
          34.6814709
        ]
      },
      "id": "node/251381460"
    },
    {
      "type": "Feature",
      "properties": {
        "@id": "node/261014731",
        "amenity": "place_of_worship",
        "created_by": "JOSM",
        "name": "Shrine",
        "religion": "shinto"
      },
      "geometry": {
        "type": "Point",
        "coordinates": [
          134.3037104,
          34.5175154
        ]
      },
      "id": "node/261014731"
    },
    {
      "type": "Feature",
      "properties": {
        "@id": "node/261014903",
        "amenity": "place_of_worship",
        "created_by": "JOSM",
        "religion": "shinto"
      },
      "geometry": {
        "type": "Point",
        "coordinates": [
          134.3143543,
          34.5171358
        ]
      },
      "id": "node/261014903"
    },
    {
      "type": "Feature",
      "properties": {
        "@id": "node/261014907",
        "amenity": "place_of_worship",
        "created_by": "JOSM",
        "religion": "shinto"
      },
      "geometry": {
        "type": "Point",
        "coordinates": [
          134.312446,
          34.5181903
        ]
      },
      "id": "node/261014907"
    },
    {
      "type": "Feature",
      "properties": {
        "@id": "node/261028796",
        "amenity": "place_of_worship",
        "created_by": "JOSM",
        "religion": "shinto"
      },
      "geometry": {
        "type": "Point",
        "coordinates": [
          134.1966599,
          34.4931631
        ]
      },
      "id": "node/261028796"
    },
    {
      "type": "Feature",
      "properties": {
        "@id": "node/263715272",
        "amenity": "place_of_worship",
        "created_by": "JOSM",
        "religion": "shinto"
      },
      "geometry": {
        "type": "Point",
        "coordinates": [
          140.1279992,
          35.5834142
        ]
      },
      "id": "node/263715272"
    },
    {
      "type": "Feature",
      "properties": {
        "@id": "node/263715299",
        "amenity": "place_of_worship",
        "created_by": "JOSM",
        "name": "今井神社",
        "religion": "shinto"
      },
      "geometry": {
        "type": "Point",
        "coordinates": [
          140.1291961,
          35.5822363
        ]
      },
      "id": "node/263715299"
    },
    {
      "type": "Feature",
      "properties": {
        "@id": "node/265072840",
        "amenity": "place_of_worship",
        "name": "瓶浦神社",
        "religion": "shinto"
      },
      "geometry": {
        "type": "Point",
        "coordinates": [
          134.6354096,
          34.2320189
        ]
      },
      "id": "node/265072840"
    },
    {
      "type": "Feature",
      "properties": {
        "@id": "node/267100504",
        "amenity": "place_of_worship",
        "name": "諏訪神社",
        "religion": "shinto"
      },
      "geometry": {
        "type": "Point",
        "coordinates": [
          134.6134856,
          34.149552
        ]
      },
      "id": "node/267100504"
    },
    {
      "type": "Feature",
      "properties": {
        "@id": "node/267493565",
        "amenity": "place_of_worship",
        "name": "四所神社",
        "religion": "shinto"
      },
      "geometry": {
        "type": "Point",
        "coordinates": [
          134.5697131,
          34.0707961
        ]
      },
      "id": "node/267493565"
    },
    {
      "type": "Feature",
      "properties": {
        "@id": "node/270300487",
        "amenity": "place_of_worship",
        "name": "八坂神社",
        "religion": "shinto"
      },
      "geometry": {
        "type": "Point",
        "coordinates": [
          134.3538254,
          34.0354971
        ]
      },
      "id": "node/270300487"
    },
    {
      "type": "Feature",
      "properties": {
        "@id": "node/270402423",
        "amenity": "place_of_worship",
        "religion": "shinto"
      },
      "geometry": {
        "type": "Point",
        "coordinates": [
          134.3540899,
          34.0052132
        ]
      },
      "id": "node/270402423"
    },
    {
      "type": "Feature",
      "properties": {
        "@id": "node/270431404",
        "amenity": "place_of_worship",
        "religion": "shinto"
      },
      "geometry": {
        "type": "Point",
        "coordinates": [
          134.39532,
          33.9882373
        ]
      },
      "id": "node/270431404"
    },
    {
      "type": "Feature",
      "properties": {
        "@id": "node/270443835",
        "amenity": "place_of_worship",
        "religion": "shinto"
      },
      "geometry": {
        "type": "Point",
        "coordinates": [
          134.4421299,
          33.9895278
        ]
      },
      "id": "node/270443835"
    },
    {
      "type": "Feature",
      "properties": {
        "@id": "node/270456368",
        "amenity": "place_of_worship",
        "name": "六社神社",
        "religion": "shinto"
      },
      "geometry": {
        "type": "Point",
        "coordinates": [
          134.4610337,
          33.9651562
        ]
      },
      "id": "node/270456368"
    },
    {
      "type": "Feature",
      "properties": {
        "@id": "node/274499436",
        "amenity": "place_of_worship",
        "name": "日峰神社",
        "religion": "shinto"
      },
      "geometry": {
        "type": "Point",
        "coordinates": [
          134.5817496,
          34.0222443
        ]
      },
      "id": "node/274499436"
    },
    {
      "type": "Feature",
      "properties": {
        "@id": "node/276557590",
        "amenity": "place_of_worship",
        "name": "偶野大権現",
        "religion": "shinto"
      },
      "geometry": {
        "type": "Point",
        "coordinates": [
          134.4718234,
          34.0918309
        ]
      },
      "id": "node/276557590"
    },
    {
      "type": "Feature",
      "properties": {
        "@id": "node/276565359",
        "amenity": "place_of_worship",
        "religion": "shinto"
      },
      "geometry": {
        "type": "Point",
        "coordinates": [
          134.4828561,
          34.0733276
        ]
      },
      "id": "node/276565359"
    },
    {
      "type": "Feature",
      "properties": {
        "@id": "node/276594025",
        "amenity": "place_of_worship",
        "religion": "shinto"
      },
      "geometry": {
        "type": "Point",
        "coordinates": [
          134.432135,
          34.0716692
        ]
      },
      "id": "node/276594025"
    },
    {
      "type": "Feature",
      "properties": {
        "@id": "node/277516684",
        "amenity": "place_of_worship",
        "name": "川井峠白い神様",
        "religion": "shinto"
      },
      "geometry": {
        "type": "Point",
        "coordinates": [
          134.2280484,
          33.9423565
        ]
      },
      "id": "node/277516684"
    },
    {
      "type": "Feature",
      "properties": {
        "@id": "node/277869126",
        "amenity": "place_of_worship",
        "name": "川上神社",
        "religion": "shinto"
      },
      "geometry": {
        "type": "Point",
        "coordinates": [
          134.1546224,
          33.8959301
        ]
      },
      "id": "node/277869126"
    },
    {
      "type": "Feature",
      "properties": {
        "@id": "node/278098573",
        "amenity": "place_of_worship",
        "religion": "shinto"
      },
      "geometry": {
        "type": "Point",
        "coordinates": [
          134.0220856,
          33.8532614
        ]
      },
      "id": "node/278098573"
    },
    {
      "type": "Feature",
      "properties": {
        "@id": "node/287194277",
        "man_made": "torii",
        "name": "蠶養宮",
        "note": "鳥居",
        "religion": "shinto"
      },
      "geometry": {
        "type": "Point",
        "coordinates": [
          139.9387999,
          37.5041337
        ]
      },
      "id": "node/287194277"
    },
    {
      "type": "Feature",
      "properties": {
        "@id": "node/288368832",
        "amenity": "place_of_worship",
        "name": "白旗神社",
        "religion": "shinto"
      },
      "geometry": {
        "type": "Point",
        "coordinates": [
          140.1746019,
          35.5155505
        ]
      },
      "id": "node/288368832"
    },
    {
      "type": "Feature",
      "properties": {
        "@id": "node/288714235",
        "amenity": "place_of_worship",
        "name": "神明神社",
        "religion": "shinto"
      },
      "geometry": {
        "type": "Point",
        "coordinates": [
          140.1712287,
          35.5435742
        ]
      },
      "id": "node/288714235"
    },
    {
      "type": "Feature",
      "properties": {
        "@id": "node/289410676",
        "amenity": "place_of_worship",
        "heritage": "1",
        "heritage:operator": "whc",
        "name": "熊野本宮大社",
        "name:en": "Kumano Hongū Taisha",
        "name:es": "Kumano Hongū Taisha",
        "name:ja": "熊野本宮大社",
        "religion": "shinto",
        "wikidata": "Q705035",
        "wikipedia": "ja:熊野本宮大社"
      },
      "geometry": {
        "type": "Point",
        "coordinates": [
          135.7736858,
          33.8406014
        ]
      },
      "id": "node/289410676"
    },
    {
      "type": "Feature",
      "properties": {
        "@id": "node/292933263",
        "amenity": "place_of_worship",
        "name": "鹿部稲荷神社",
        "religion": "shinto"
      },
      "geometry": {
        "type": "Point",
        "coordinates": [
          140.8174191,
          42.0355247
        ]
      },
      "id": "node/292933263"
    },
    {
      "type": "Feature",
      "properties": {
        "@id": "node/292934142",
        "amenity": "place_of_worship",
        "name": "本別稲荷神社",
        "religion": "shinto"
      },
      "geometry": {
        "type": "Point",
        "coordinates": [
          140.8083636,
          42.0515256
        ]
      },
      "id": "node/292934142"
    },
    {
      "type": "Feature",
      "properties": {
        "@id": "node/293160382",
        "amenity": "place_of_worship",
        "name": "大岩神社",
        "religion": "shinto"
      },
      "geometry": {
        "type": "Point",
        "coordinates": [
          140.8425763,
          42.019029
        ]
      },
      "id": "node/293160382"
    },
    {
      "type": "Feature",
      "properties": {
        "@id": "node/294370839",
        "amenity": "place_of_worship",
        "name": "本殿",
        "religion": "shinto"
      },
      "geometry": {
        "type": "Point",
        "coordinates": [
          136.5421396,
          36.0438651
        ]
      },
      "id": "node/294370839"
    },
    {
      "type": "Feature",
      "properties": {
        "@id": "node/298593792",
        "amenity": "place_of_worship",
        "name": "恵比寿神社",
        "religion": "shinto"
      },
      "geometry": {
        "type": "Point",
        "coordinates": [
          134.5507357,
          33.7356815
        ]
      },
      "id": "node/298593792"
    },
    {
      "type": "Feature",
      "properties": {
        "@id": "node/298710090",
        "amenity": "place_of_worship",
        "created_by": "Potlatch 0.10c",
        "name": "稲荷神社",
        "religion": "shinto"
      },
      "geometry": {
        "type": "Point",
        "coordinates": [
          139.6201683,
          35.9066978
        ]
      },
      "id": "node/298710090"
    },
    {
      "type": "Feature",
      "properties": {
        "@id": "node/304417974",
        "amenity": "place_of_worship",
        "denomination": "Hachiman",
        "name": "洗足八幡神社",
        "name:en": "Senzoku Hachiman",
        "name:ja": "洗足八幡神社",
        "religion": "shinto"
      },
      "geometry": {
        "type": "Point",
        "coordinates": [
          139.6890935,
          35.6020865
        ]
      },
      "id": "node/304417974"
    },
    {
      "type": "Feature",
      "properties": {
        "@id": "node/310748654",
        "amenity": "place_of_worship",
        "name": "新熊野神社 (Imakumano Shrine)",
        "name:en": "Imakumano Shrine",
        "name:ja": "新熊野神社",
        "name:ja_rm": "Imakumano-jinja",
        "religion": "shinto",
        "wikidata": "Q17193550"
      },
      "geometry": {
        "type": "Point",
        "coordinates": [
          135.7736863,
          34.9846664
        ]
      },
      "id": "node/310748654"
    },
    {
      "type": "Feature",
      "properties": {
        "@id": "node/313060259",
        "amenity": "place_of_worship",
        "name": "Dazaifu Tenman-gu",
        "religion": "shinto",
        "tourism": "attraction"
      },
      "geometry": {
        "type": "Point",
        "coordinates": [
          130.5347205,
          33.5214952
        ]
      },
      "id": "node/313060259"
    },
    {
      "type": "Feature",
      "properties": {
        "@id": "node/313663254",
        "amenity": "place_of_worship",
        "name": "岡村天満宮(Okamura-Tenmangu)",
        "religion": "shinto"
      },
      "geometry": {
        "type": "Point",
        "coordinates": [
          139.6131179,
          35.4159827
        ]
      },
      "id": "node/313663254"
    },
    {
      "type": "Feature",
      "properties": {
        "@id": "node/314340099",
        "amenity": "place_of_worship",
        "name": "青木葉天満宮",
        "religion": "shinto"
      },
      "geometry": {
        "type": "Point",
        "coordinates": [
          139.4270387,
          35.6162754
        ]
      },
      "id": "node/314340099"
    },
    {
      "type": "Feature",
      "properties": {
        "@id": "node/331115910",
        "amenity": "place_of_worship",
        "name": "淡島神社",
        "religion": "shinto"
      },
      "geometry": {
        "type": "Point",
        "coordinates": [
          134.6994008,
          33.9219992
        ]
      },
      "id": "node/331115910"
    },
    {
      "type": "Feature",
      "properties": {
        "@id": "node/331124640",
        "amenity": "place_of_worship",
        "religion": "shinto"
      },
      "geometry": {
        "type": "Point",
        "coordinates": [
          134.4008409,
          33.7971118
        ]
      },
      "id": "node/331124640"
    },
    {
      "type": "Feature",
      "properties": {
        "@id": "node/334167696",
        "amenity": "place_of_worship",
        "created_by": "Merkaartor 0.11",
        "name": "天照皇大神",
        "name:ja_rm": "Amaterasusumeohkami",
        "religion": "shinto"
      },
      "geometry": {
        "type": "Point",
        "coordinates": [
          139.663706,
          35.5504333
        ]
      },
      "id": "node/334167696"
    },
    {
      "type": "Feature",
      "properties": {
        "@id": "node/334232017",
        "amenity": "place_of_worship",
        "created_by": "Merkaartor 0.11",
        "name": "浅間神社",
        "name:ja_rm": "asama jinjya",
        "religion": "shinto",
        "wheelchair": "no"
      },
      "geometry": {
        "type": "Point",
        "coordinates": [
          139.6645881,
          35.5501783
        ]
      },
      "id": "node/334232017"
    },
    {
      "type": "Feature",
      "properties": {
        "@id": "node/334232022",
        "amenity": "place_of_worship",
        "created_by": "Merkaartor 0.11",
        "name": "熊野神社",
        "name:ja_rm": "Kumano jinjya",
        "religion": "shinto"
      },
      "geometry": {
        "type": "Point",
        "coordinates": [
          139.66506,
          35.5499682
        ]
      },
      "id": "node/334232022"
    },
    {
      "type": "Feature",
      "properties": {
        "@id": "node/340381542",
        "amenity": "place_of_worship",
        "name": "恵比寿神社",
        "name:en": "Ebisu Shrine",
        "religion": "shinto"
      },
      "geometry": {
        "type": "Point",
        "coordinates": [
          139.7077849,
          35.6472232
        ]
      },
      "id": "node/340381542"
    },
    {
      "type": "Feature",
      "properties": {
        "@id": "node/358836010",
        "amenity": "place_of_worship",
        "denomination": "konkokyo",
        "ele": "5",
        "gnis:county_id": "067",
        "gnis:created": "03/26/1999",
        "gnis:feature_id": "1820013",
        "gnis:state_id": "06",
        "name": "Konko Church of Sacramento",
        "religion": "shinto"
      },
      "geometry": {
        "type": "Point",
        "coordinates": [
          -121.5039075,
          38.5704166
        ]
      },
      "id": "node/358836010"
    },
    {
      "type": "Feature",
      "properties": {
        "@id": "node/369715017",
        "name": "八幡神社",
        "religion": "shinto"
      },
      "geometry": {
        "type": "Point",
        "coordinates": [
          134.5444169,
          33.9181883
        ]
      },
      "id": "node/369715017"
    },
    {
      "type": "Feature",
      "properties": {
        "@id": "node/369987357",
        "amenity": "place_of_worship",
        "name": "山神社",
        "religion": "shinto"
      },
      "geometry": {
        "type": "Point",
        "coordinates": [
          134.5401089,
          33.748548
        ]
      },
      "id": "node/369987357"
    },
    {
      "type": "Feature",
      "properties": {
        "@id": "node/370030192",
        "amenity": "place_of_worship",
        "name": "白鳥神社",
        "religion": "shinto"
      },
      "geometry": {
        "type": "Point",
        "coordinates": [
          134.580248,
          33.7727248
        ]
      },
      "id": "node/370030192"
    },
    {
      "type": "Feature",
      "properties": {
        "@id": "node/371159132",
        "amenity": "place_of_worship",
        "name": "十二神社",
        "religion": "shinto"
      },
      "geometry": {
        "type": "Point",
        "coordinates": [
          139.5077071,
          35.6059462
        ]
      },
      "id": "node/371159132"
    },
    {
      "type": "Feature",
      "properties": {
        "@id": "node/372356152",
        "amenity": "place_of_worship",
        "name": "諏方大神",
        "name:ja_rm": "Suwa no Ookami",
        "religion": "shinto"
      },
      "geometry": {
        "type": "Point",
        "coordinates": [
          138.9744389,
          37.5105527
        ]
      },
      "id": "node/372356152"
    },
    {
      "type": "Feature",
      "properties": {
        "@id": "node/373928236",
        "amenity": "place_of_worship",
        "name": "御所神社",
        "religion": "shinto"
      },
      "geometry": {
        "type": "Point",
        "coordinates": [
          134.2011533,
          34.1637622
        ]
      },
      "id": "node/373928236"
    },
    {
      "type": "Feature",
      "properties": {
        "@id": "node/376339026",
        "amenity": "place_of_worship",
        "name": "護国神社 (Gokoku-jinja)",
        "name:en": "Gokuku shrine",
        "name:ja": "護国神社",
        "religion": "shinto"
      },
      "geometry": {
        "type": "Point",
        "coordinates": [
          130.3820896,
          33.5817348
        ]
      },
      "id": "node/376339026"
    },
    {
      "type": "Feature",
      "properties": {
        "@id": "node/380420359",
        "amenity": "place_of_worship",
        "name": "龍穴神社",
        "religion": "shinto"
      },
      "geometry": {
        "type": "Point",
        "coordinates": [
          136.0471516,
          34.5349683
        ]
      },
      "id": "node/380420359"
    },
    {
      "type": "Feature",
      "properties": {
        "@id": "node/384542332",
        "amenity": "place_of_worship",
        "name": "警固神社",
        "name:en": "Kego Shrine",
        "name:ja": "警固神社",
        "name:ja_kana": "けごじんじゃ",
        "name:ja_rm": "Kego-jinja",
        "religion": "shinto"
      },
      "geometry": {
        "type": "Point",
        "coordinates": [
          130.3997947,
          33.5877183
        ]
      },
      "id": "node/384542332"
    },
    {
      "type": "Feature",
      "properties": {
        "@id": "node/388198381",
        "amenity": "place_of_worship",
        "name": "王子神社",
        "religion": "shinto"
      },
      "geometry": {
        "type": "Point",
        "coordinates": [
          134.6113548,
          33.9114767
        ]
      },
      "id": "node/388198381"
    },
    {
      "type": "Feature",
      "properties": {
        "@id": "node/388198421",
        "amenity": "place_of_worship",
        "name": "八鉾神社",
        "religion": "shinto"
      },
      "geometry": {
        "type": "Point",
        "coordinates": [
          134.6164805,
          33.9201919
        ]
      },
      "id": "node/388198421"
    },
    {
      "type": "Feature",
      "properties": {
        "@id": "node/388453773",
        "amenity": "place_of_worship",
        "name": "轟神社拝殿",
        "religion": "shinto"
      },
      "geometry": {
        "type": "Point",
        "coordinates": [
          134.5788091,
          33.8472504
        ]
      },
      "id": "node/388453773"
    },
    {
      "type": "Feature",
      "properties": {
        "@id": "node/390657439",
        "amenity": "place_of_worship",
        "name": "川通稲荷神社",
        "religion": "shinto"
      },
      "geometry": {
        "type": "Point",
        "coordinates": [
          139.9026569,
          35.8166931
        ]
      },
      "id": "node/390657439"
    },
    {
      "type": "Feature",
      "properties": {
        "@id": "node/391177865",
        "amenity": "place_of_worship",
        "name": "蘇我比咩神社",
        "note": "estimated",
        "religion": "shinto"
      },
      "geometry": {
        "type": "Point",
        "coordinates": [
          140.1299355,
          35.5727201
        ]
      },
      "id": "node/391177865"
    },
    {
      "type": "Feature",
      "properties": {
        "@id": "node/394709198",
        "amenity": "place_of_worship",
        "name": "釼尾神社",
        "religion": "shinto"
      },
      "geometry": {
        "type": "Point",
        "coordinates": [
          133.6336017,
          33.5332927
        ]
      },
      "id": "node/394709198"
    },
    {
      "type": "Feature",
      "properties": {
        "@id": "node/401498382",
        "amenity": "place_of_worship",
        "name": "岡神社",
        "religion": "shinto"
      },
      "geometry": {
        "type": "Point",
        "coordinates": [
          136.3673868,
          35.385507
        ]
      },
      "id": "node/401498382"
    },
    {
      "type": "Feature",
      "properties": {
        "@id": "node/402522606",
        "amenity": "place_of_worship",
        "name": "八幡神社",
        "religion": "shinto"
      },
      "geometry": {
        "type": "Point",
        "coordinates": [
          136.3328466,
          35.3762195
        ]
      },
      "id": "node/402522606"
    },
    {
      "type": "Feature",
      "properties": {
        "@id": "node/402522607",
        "amenity": "place_of_worship",
        "name": "八幡神社",
        "religion": "shinto"
      },
      "geometry": {
        "type": "Point",
        "coordinates": [
          136.3741993,
          35.3890834
        ]
      },
      "id": "node/402522607"
    },
    {
      "type": "Feature",
      "properties": {
        "@id": "node/402522608",
        "amenity": "place_of_worship",
        "name": "八幡神社",
        "religion": "shinto"
      },
      "geometry": {
        "type": "Point",
        "coordinates": [
          136.3675075,
          35.3945409
        ]
      },
      "id": "node/402522608"
    },
    {
      "type": "Feature",
      "properties": {
        "@id": "node/402522609",
        "amenity": "place_of_worship",
        "name": "日枝神社",
        "religion": "shinto"
      },
      "geometry": {
        "type": "Point",
        "coordinates": [
          136.2930138,
          35.3827965
        ]
      },
      "id": "node/402522609"
    },
    {
      "type": "Feature",
      "properties": {
        "@id": "node/402522610",
        "amenity": "place_of_worship",
        "name": "天満神社",
        "religion": "shinto"
      },
      "geometry": {
        "type": "Point",
        "coordinates": [
          136.271103,
          35.3798551
        ]
      },
      "id": "node/402522610"
    },
    {
      "type": "Feature",
      "properties": {
        "@id": "node/402522612",
        "amenity": "place_of_worship",
        "name": "伊吹神社",
        "religion": "shinto"
      },
      "geometry": {
        "type": "Point",
        "coordinates": [
          136.2892464,
          35.3907937
        ]
      },
      "id": "node/402522612"
    },
    {
      "type": "Feature",
      "properties": {
        "@id": "node/402522613",
        "amenity": "place_of_worship",
        "name": "郷里神社",
        "religion": "shinto"
      },
      "geometry": {
        "type": "Point",
        "coordinates": [
          136.2947425,
          35.403015
        ]
      },
      "id": "node/402522613"
    },
    {
      "type": "Feature",
      "properties": {
        "@id": "node/402522614",
        "amenity": "place_of_worship",
        "name": "稲荷神社",
        "religion": "shinto"
      },
      "geometry": {
        "type": "Point",
        "coordinates": [
          136.2706484,
          35.3829903
        ]
      },
      "id": "node/402522614"
    },
    {
      "type": "Feature",
      "properties": {
        "@id": "node/402522615",
        "amenity": "place_of_worship",
        "name": "日吉神社",
        "religion": "shinto"
      },
      "geometry": {
        "type": "Point",
        "coordinates": [
          136.2701627,
          35.3828463
        ]
      },
      "id": "node/402522615"
    },
    {
      "type": "Feature",
      "properties": {
        "@id": "node/402522632",
        "amenity": "place_of_worship",
        "name": "八幡神社",
        "religion": "shinto"
      },
      "geometry": {
        "type": "Point",
        "coordinates": [
          136.3417728,
          35.3848807
        ]
      },
      "id": "node/402522632"
    },
    {
      "type": "Feature",
      "properties": {
        "@id": "node/402522634",
        "amenity": "place_of_worship",
        "name": "神明神社",
        "religion": "shinto"
      },
      "geometry": {
        "type": "Point",
        "coordinates": [
          136.2698887,
          35.379071
        ]
      },
      "id": "node/402522634"
    },
    {
      "type": "Feature",
      "properties": {
        "@id": "node/402522635",
        "amenity": "place_of_worship",
        "name": "稲荷神社",
        "religion": "shinto"
      },
      "geometry": {
        "type": "Point",
        "coordinates": [
          136.2687744,
          35.3754586
        ]
      },
      "id": "node/402522635"
    },
    {
      "type": "Feature",
      "properties": {
        "@id": "node/408839221",
        "amenity": "place_of_worship",
        "name": "神峯神社",
        "religion": "shinto",
        "wikidata": "Q11589590"
      },
      "geometry": {
        "type": "Point",
        "coordinates": [
          133.9752755,
          33.4686967
        ]
      },
      "id": "node/408839221"
    },
    {
      "type": "Feature",
      "properties": {
        "@id": "node/410889074",
        "amenity": "place_of_worship",
        "name": "月ヶ瀬神社",
        "religion": "shinto"
      },
      "geometry": {
        "type": "Point",
        "coordinates": [
          136.2510655,
          35.4281607
        ]
      },
      "id": "node/410889074"
    },
    {
      "type": "Feature",
      "properties": {
        "@id": "node/411183988",
        "amenity": "place_of_worship",
        "name": "和泉神社",
        "religion": "shinto"
      },
      "geometry": {
        "type": "Point",
        "coordinates": [
          136.2678877,
          35.4788772
        ]
      },
      "id": "node/411183988"
    },
    {
      "type": "Feature",
      "properties": {
        "@id": "node/411183991",
        "amenity": "place_of_worship",
        "name": "岡本神社",
        "religion": "shinto"
      },
      "geometry": {
        "type": "Point",
        "coordinates": [
          136.2528802,
          35.4608535
        ]
      },
      "id": "node/411183991"
    },
    {
      "type": "Feature",
      "properties": {
        "@id": "node/411183993",
        "amenity": "place_of_worship",
        "name": "吉野神社",
        "religion": "shinto"
      },
      "geometry": {
        "type": "Point",
        "coordinates": [
          136.356185,
          35.4585108
        ]
      },
      "id": "node/411183993"
    },
    {
      "type": "Feature",
      "properties": {
        "@id": "node/411183996",
        "amenity": "place_of_worship",
        "name": "日吉神社",
        "religion": "shinto"
      },
      "geometry": {
        "type": "Point",
        "coordinates": [
          136.2577907,
          35.3978042
        ]
      },
      "id": "node/411183996"
    },
    {
      "type": "Feature",
      "properties": {
        "@id": "node/411183998",
        "amenity": "place_of_worship",
        "name": "鹿座神社",
        "religion": "shinto"
      },
      "geometry": {
        "type": "Point",
        "coordinates": [
          136.3140836,
          35.4061315
        ]
      },
      "id": "node/411183998"
    },
    {
      "type": "Feature",
      "properties": {
        "@id": "node/411184001",
        "amenity": "place_of_worship",
        "name": "上坂神社",
        "religion": "shinto"
      },
      "geometry": {
        "type": "Point",
        "coordinates": [
          136.3187001,
          35.4063871
        ]
      },
      "id": "node/411184001"
    },
    {
      "type": "Feature",
      "properties": {
        "@id": "node/411184003",
        "amenity": "place_of_worship",
        "name": "白山神社",
        "religion": "shinto"
      },
      "geometry": {
        "type": "Point",
        "coordinates": [
          136.3046552,
          35.3964877
        ]
      },
      "id": "node/411184003"
    },
    {
      "type": "Feature",
      "properties": {
        "@id": "node/411184020",
        "amenity": "place_of_worship",
        "name": "湯次神社",
        "religion": "shinto"
      },
      "geometry": {
        "type": "Point",
        "coordinates": [
          136.3025219,
          35.4234207
        ]
      },
      "id": "node/411184020"
    },
    {
      "type": "Feature",
      "properties": {
        "@id": "node/411184024",
        "amenity": "place_of_worship",
        "name": "坂田神明宮",
        "religion": "shinto"
      },
      "geometry": {
        "type": "Point",
        "coordinates": [
          136.2870373,
          35.3373081
        ]
      },
      "id": "node/411184024"
    },
    {
      "type": "Feature",
      "properties": {
        "@id": "node/411184027",
        "amenity": "place_of_worship",
        "name": "坂田神明宮",
        "religion": "shinto"
      },
      "geometry": {
        "type": "Point",
        "coordinates": [
          136.2874285,
          35.3375042
        ]
      },
      "id": "node/411184027"
    },
    {
      "type": "Feature",
      "properties": {
        "@id": "node/411308401",
        "amenity": "place_of_worship",
        "name": "天神神社",
        "religion": "shinto"
      },
      "geometry": {
        "type": "Point",
        "coordinates": [
          136.2726437,
          35.392145
        ]
      },
      "id": "node/411308401"
    },
    {
      "type": "Feature",
      "properties": {
        "@id": "node/411308402",
        "amenity": "place_of_worship",
        "name": "若宮神社",
        "religion": "shinto"
      },
      "geometry": {
        "type": "Point",
        "coordinates": [
          136.2773536,
          35.3961998
        ]
      },
      "id": "node/411308402"
    },
    {
      "type": "Feature",
      "properties": {
        "@id": "node/411308403",
        "amenity": "place_of_worship",
        "name": "住吉神社",
        "religion": "shinto"
      },
      "geometry": {
        "type": "Point",
        "coordinates": [
          136.2770949,
          35.3760514
        ]
      },
      "id": "node/411308403"
    },
    {
      "type": "Feature",
      "properties": {
        "@id": "node/412297841",
        "amenity": "place_of_worship",
        "name": "八坂神社",
        "religion": "shinto"
      },
      "geometry": {
        "type": "Point",
        "coordinates": [
          136.2568523,
          35.3842888
        ]
      },
      "id": "node/412297841"
    },
    {
      "type": "Feature",
      "properties": {
        "@id": "node/412643507",
        "amenity": "place_of_worship",
        "name": "生駒神社",
        "religion": "shinto"
      },
      "geometry": {
        "type": "Point",
        "coordinates": [
          136.2717353,
          35.3732709
        ]
      },
      "id": "node/412643507"
    },
    {
      "type": "Feature",
      "properties": {
        "@id": "node/412643508",
        "amenity": "place_of_worship",
        "name": "貴船神社",
        "religion": "shinto"
      },
      "geometry": {
        "type": "Point",
        "coordinates": [
          136.2681016,
          35.3747508
        ]
      },
      "id": "node/412643508"
    },
    {
      "type": "Feature",
      "properties": {
        "@id": "node/412643515",
        "amenity": "place_of_worship",
        "name": "長浜八幡宮御旅所",
        "religion": "shinto"
      },
      "geometry": {
        "type": "Point",
        "coordinates": [
          136.2657855,
          35.3807767
        ]
      },
      "id": "node/412643515"
    },
    {
      "type": "Feature",
      "properties": {
        "@id": "node/412680006",
        "amenity": "place_of_worship",
        "name": "天守神社",
        "religion": "shinto"
      },
      "geometry": {
        "type": "Point",
        "coordinates": [
          136.2609478,
          35.3779531
        ]
      },
      "id": "node/412680006"
    },
    {
      "type": "Feature",
      "properties": {
        "@id": "node/412723466",
        "amenity": "place_of_worship",
        "name": "後鳥羽神社",
        "religion": "shinto"
      },
      "geometry": {
        "type": "Point",
        "coordinates": [
          136.3209612,
          35.3581956
        ]
      },
      "id": "node/412723466"
    },
    {
      "type": "Feature",
      "properties": {
        "@id": "node/412723467",
        "amenity": "place_of_worship",
        "name": "若宮神社",
        "religion": "shinto"
      },
      "geometry": {
        "type": "Point",
        "coordinates": [
          136.3049845,
          35.3557464
        ]
      },
      "id": "node/412723467"
    },
    {
      "type": "Feature",
      "properties": {
        "@id": "node/412723468",
        "amenity": "place_of_worship",
        "name": "日枝神社",
        "religion": "shinto"
      },
      "geometry": {
        "type": "Point",
        "coordinates": [
          136.2930878,
          35.3777265
        ]
      },
      "id": "node/412723468"
    },
    {
      "type": "Feature",
      "properties": {
        "@id": "node/412723473",
        "amenity": "place_of_worship",
        "name": "足柄神社",
        "religion": "shinto"
      },
      "geometry": {
        "type": "Point",
        "coordinates": [
          136.3126762,
          35.3757629
        ]
      },
      "id": "node/412723473"
    },
    {
      "type": "Feature",
      "properties": {
        "@id": "node/413317485",
        "amenity": "place_of_worship",
        "name": "加茂神社",
        "religion": "shinto"
      },
      "geometry": {
        "type": "Point",
        "coordinates": [
          136.2818207,
          35.4070821
        ]
      },
      "id": "node/413317485"
    },
    {
      "type": "Feature",
      "properties": {
        "@id": "node/413317486",
        "amenity": "place_of_worship",
        "name": "大井神社",
        "religion": "shinto"
      },
      "geometry": {
        "type": "Point",
        "coordinates": [
          136.2643278,
          35.4184429
        ]
      },
      "id": "node/413317486"
    },
    {
      "type": "Feature",
      "properties": {
        "@id": "node/413317487",
        "amenity": "place_of_worship",
        "name": "大将軍神社",
        "religion": "shinto"
      },
      "geometry": {
        "type": "Point",
        "coordinates": [
          136.2594235,
          35.4212078
        ]
      },
      "id": "node/413317487"
    },
    {
      "type": "Feature",
      "properties": {
        "@id": "node/413317488",
        "amenity": "place_of_worship",
        "name": "大本木神社",
        "religion": "shinto"
      },
      "geometry": {
        "type": "Point",
        "coordinates": [
          136.2575569,
          35.4269255
        ]
      },
      "id": "node/413317488"
    },
    {
      "type": "Feature",
      "properties": {
        "@id": "node/413317489",
        "amenity": "place_of_worship",
        "name": "虎御前神社",
        "religion": "shinto"
      },
      "geometry": {
        "type": "Point",
        "coordinates": [
          136.2681553,
          35.4429198
        ]
      },
      "id": "node/413317489"
    },
    {
      "type": "Feature",
      "properties": {
        "@id": "node/413317490",
        "amenity": "place_of_worship",
        "name": "日枝神社",
        "religion": "shinto"
      },
      "geometry": {
        "type": "Point",
        "coordinates": [
          136.2715871,
          35.4082177
        ]
      },
      "id": "node/413317490"
    },
    {
      "type": "Feature",
      "properties": {
        "@id": "node/413317491",
        "amenity": "place_of_worship",
        "name": "日吉神社",
        "religion": "shinto"
      },
      "geometry": {
        "type": "Point",
        "coordinates": [
          136.2833397,
          35.4110393
        ]
      },
      "id": "node/413317491"
    },
    {
      "type": "Feature",
      "properties": {
        "@id": "node/413317493",
        "amenity": "place_of_worship",
        "name": "橋本神社",
        "religion": "shinto"
      },
      "geometry": {
        "type": "Point",
        "coordinates": [
          136.2842986,
          35.4036774
        ]
      },
      "id": "node/413317493"
    },
    {
      "type": "Feature",
      "properties": {
        "@id": "node/413317495",
        "amenity": "place_of_worship",
        "name": "三の宮神社",
        "religion": "shinto"
      },
      "geometry": {
        "type": "Point",
        "coordinates": [
          136.2783983,
          35.3786969
        ]
      },
      "id": "node/413317495"
    },
    {
      "type": "Feature",
      "properties": {
        "@id": "node/413317496",
        "amenity": "place_of_worship",
        "name": "豊受稲荷神社",
        "religion": "shinto"
      },
      "geometry": {
        "type": "Point",
        "coordinates": [
          136.278678,
          35.3786347
        ]
      },
      "id": "node/413317496"
    },
    {
      "type": "Feature",
      "properties": {
        "@id": "node/413317498",
        "amenity": "place_of_worship",
        "name": "八坂神社",
        "religion": "shinto"
      },
      "geometry": {
        "type": "Point",
        "coordinates": [
          136.2706711,
          35.4016602
        ]
      },
      "id": "node/413317498"
    },
    {
      "type": "Feature",
      "properties": {
        "@id": "node/413317499",
        "amenity": "place_of_worship",
        "name": "三ツ矢大神宮",
        "religion": "shinto"
      },
      "geometry": {
        "type": "Point",
        "coordinates": [
          136.2676458,
          35.3841721
        ]
      },
      "id": "node/413317499"
    },
    {
      "type": "Feature",
      "properties": {
        "@id": "node/413317500",
        "amenity": "place_of_worship",
        "name": "郡上太神宮",
        "religion": "shinto"
      },
      "geometry": {
        "type": "Point",
        "coordinates": [
          136.2658123,
          35.3840604
        ]
      },
      "id": "node/413317500"
    },
    {
      "type": "Feature",
      "properties": {
        "@id": "node/413317501",
        "amenity": "place_of_worship",
        "name": "八幡神社",
        "religion": "shinto"
      },
      "geometry": {
        "type": "Point",
        "coordinates": [
          136.2691998,
          35.3865245
        ]
      },
      "id": "node/413317501"
    },
    {
      "type": "Feature",
      "properties": {
        "@id": "node/413317502",
        "amenity": "place_of_worship",
        "name": "五所神社",
        "religion": "shinto"
      },
      "geometry": {
        "type": "Point",
        "coordinates": [
          136.2882965,
          35.3861542
        ]
      },
      "id": "node/413317502"
    },
    {
      "type": "Feature",
      "properties": {
        "@id": "node/413406079",
        "amenity": "place_of_worship",
        "name": "三島神社",
        "religion": "shinto"
      },
      "geometry": {
        "type": "Point",
        "coordinates": [
          136.3569851,
          35.3741726
        ]
      },
      "id": "node/413406079"
    },
    {
      "type": "Feature",
      "properties": {
        "@id": "node/413406080",
        "amenity": "place_of_worship",
        "name": "愛宕神社",
        "religion": "shinto"
      },
      "geometry": {
        "type": "Point",
        "coordinates": [
          136.3563168,
          35.3772484
        ]
      },
      "id": "node/413406080"
    },
    {
      "type": "Feature",
      "properties": {
        "@id": "node/413406083",
        "amenity": "place_of_worship",
        "name": "鎌足神社",
        "religion": "shinto"
      },
      "geometry": {
        "type": "Point",
        "coordinates": [
          136.3548635,
          35.3799652
        ]
      },
      "id": "node/413406083"
    },
    {
      "type": "Feature",
      "properties": {
        "@id": "node/413406084",
        "amenity": "place_of_worship",
        "name": "八幡神社",
        "religion": "shinto"
      },
      "geometry": {
        "type": "Point",
        "coordinates": [
          136.3571843,
          35.3821564
        ]
      },
      "id": "node/413406084"
    },
    {
      "type": "Feature",
      "properties": {
        "@id": "node/413406085",
        "amenity": "place_of_worship",
        "name": "五十鈴神社",
        "religion": "shinto"
      },
      "geometry": {
        "type": "Point",
        "coordinates": [
          136.3634118,
          35.3786926
        ]
      },
      "id": "node/413406085"
    },
    {
      "type": "Feature",
      "properties": {
        "@id": "node/413406086",
        "amenity": "place_of_worship",
        "name": "都久夫須麻神社",
        "religion": "shinto"
      },
      "geometry": {
        "type": "Point",
        "coordinates": [
          136.3584985,
          35.3762091
        ]
      },
      "id": "node/413406086"
    },
    {
      "type": "Feature",
      "properties": {
        "@id": "node/413406087",
        "amenity": "place_of_worship",
        "name": "八幡神社",
        "religion": "shinto"
      },
      "geometry": {
        "type": "Point",
        "coordinates": [
          136.3589548,
          35.3356559
        ]
      },
      "id": "node/413406087"
    },
    {
      "type": "Feature",
      "properties": {
        "@id": "node/413406088",
        "amenity": "place_of_worship",
        "name": "日吉神社",
        "religion": "shinto"
      },
      "geometry": {
        "type": "Point",
        "coordinates": [
          136.2489171,
          35.4334164
        ]
      },
      "id": "node/413406088"
    },
    {
      "type": "Feature",
      "properties": {
        "@id": "node/413705218",
        "amenity": "place_of_worship",
        "name": "八坂神社",
        "religion": "shinto"
      },
      "geometry": {
        "type": "Point",
        "coordinates": [
          136.3021,
          35.3577155
        ]
      },
      "id": "node/413705218"
    },
    {
      "type": "Feature",
      "properties": {
        "@id": "node/413705221",
        "amenity": "place_of_worship",
        "name": "田村神社",
        "religion": "shinto"
      },
      "geometry": {
        "type": "Point",
        "coordinates": [
          136.285371,
          35.3570323
        ]
      },
      "id": "node/413705221"
    },
    {
      "type": "Feature",
      "properties": {
        "@id": "node/413735512",
        "amenity": "place_of_worship",
        "name": "比伎多利神社",
        "religion": "shinto"
      },
      "geometry": {
        "type": "Point",
        "coordinates": [
          136.2052601,
          35.4398483
        ]
      },
      "id": "node/413735512"
    },
    {
      "type": "Feature",
      "properties": {
        "@id": "node/413735514",
        "amenity": "place_of_worship",
        "name": "八相宮",
        "religion": "shinto"
      },
      "geometry": {
        "type": "Point",
        "coordinates": [
          136.4006191,
          35.3631195
        ]
      },
      "id": "node/413735514"
    },
    {
      "type": "Feature",
      "properties": {
        "@id": "node/413735515",
        "amenity": "place_of_worship",
        "name": "泉神社",
        "religion": "shinto"
      },
      "geometry": {
        "type": "Point",
        "coordinates": [
          136.4011335,
          35.3749896
        ]
      },
      "id": "node/413735515"
    },
    {
      "type": "Feature",
      "properties": {
        "@id": "node/413735516",
        "amenity": "place_of_worship",
        "name": "八阪神社",
        "religion": "shinto"
      },
      "geometry": {
        "type": "Point",
        "coordinates": [
          136.4180467,
          35.383908
        ]
      },
      "id": "node/413735516"
    },
    {
      "type": "Feature",
      "properties": {
        "@id": "node/413735517",
        "amenity": "place_of_worship",
        "name": "八幡神社",
        "religion": "shinto"
      },
      "geometry": {
        "type": "Point",
        "coordinates": [
          136.4048857,
          35.3447266
        ]
      },
      "id": "node/413735517"
    },
    {
      "type": "Feature",
      "properties": {
        "@id": "node/413735518",
        "amenity": "place_of_worship",
        "name": "津島神社",
        "religion": "shinto"
      },
      "geometry": {
        "type": "Point",
        "coordinates": [
          136.3962647,
          35.3387994
        ]
      },
      "id": "node/413735518"
    },
    {
      "type": "Feature",
      "properties": {
        "@id": "node/413735519",
        "amenity": "place_of_worship",
        "name": "勝居神社",
        "religion": "shinto"
      },
      "geometry": {
        "type": "Point",
        "coordinates": [
          136.3860673,
          35.3706551
        ]
      },
      "id": "node/413735519"
    },
    {
      "type": "Feature",
      "properties": {
        "@id": "node/413735520",
        "amenity": "place_of_worship",
        "name": "千福神社",
        "religion": "shinto"
      },
      "geometry": {
        "type": "Point",
        "coordinates": [
          136.3811236,
          35.3761351
        ]
      },
      "id": "node/413735520"
    },
    {
      "type": "Feature",
      "properties": {
        "@id": "node/413735521",
        "amenity": "place_of_worship",
        "name": "伊夫岐神社",
        "religion": "shinto"
      },
      "geometry": {
        "type": "Point",
        "coordinates": [
          136.3770224,
          35.4026894
        ]
      },
      "id": "node/413735521"
    },
    {
      "type": "Feature",
      "properties": {
        "@id": "node/414263455",
        "amenity": "place_of_worship",
        "name": "八幡神社",
        "religion": "shinto"
      },
      "geometry": {
        "type": "Point",
        "coordinates": [
          134.5272196,
          34.0096238
        ]
      },
      "id": "node/414263455"
    },
    {
      "type": "Feature",
      "properties": {
        "@id": "node/415161573",
        "amenity": "place_of_worship",
        "name": "신안동",
        "name:en": "Sinan-dong",
        "name:ko": "신안동",
        "name:ko-Latn": "Sinan-dong",
        "ncat": "교차로및지명",
        "religion": "shinto",
        "source": "mp2osm"
      },
      "geometry": {
        "type": "Point",
        "coordinates": [
          127.43838,
          36.32986
        ]
      },
      "id": "node/415161573"
    },
    {
      "type": "Feature",
      "properties": {
        "@id": "node/415526510",
        "amenity": "place_of_worship",
        "name": "天津神社",
        "religion": "shinto"
      },
      "geometry": {
        "type": "Point",
        "coordinates": [
          134.5095513,
          33.9623441
        ]
      },
      "id": "node/415526510"
    },
    {
      "type": "Feature",
      "properties": {
        "@id": "node/416023900",
        "amenity": "place_of_worship",
        "religion": "shinto"
      },
      "geometry": {
        "type": "Point",
        "coordinates": [
          138.9793465,
          37.498767
        ]
      },
      "id": "node/416023900"
    },
    {
      "type": "Feature",
      "properties": {
        "@id": "node/416167900",
        "amenity": "place_of_worship",
        "layer": "1",
        "name": "上杉神社(Uesugi Shrine)",
        "religion": "shinto"
      },
      "geometry": {
        "type": "Point",
        "coordinates": [
          140.1040578,
          37.9092747
        ]
      },
      "id": "node/416167900"
    },
    {
      "type": "Feature",
      "properties": {
        "@id": "node/416190573",
        "amenity": "place_of_worship",
        "layer": "1",
        "name": "松岬神社",
        "religion": "shinto"
      },
      "geometry": {
        "type": "Point",
        "coordinates": [
          140.1066815,
          37.9092986
        ]
      },
      "id": "node/416190573"
    },
    {
      "type": "Feature",
      "properties": {
        "@id": "node/416198223",
        "amenity": "place_of_worship",
        "layer": "1",
        "name": "春日神社",
        "religion": "shinto"
      },
      "geometry": {
        "type": "Point",
        "coordinates": [
          140.1037918,
          37.9088954
        ]
      },
      "id": "node/416198223"
    },
    {
      "type": "Feature",
      "properties": {
        "@id": "node/416218853",
        "amenity": "place_of_worship",
        "name": "八幡神社",
        "religion": "shinto"
      },
      "geometry": {
        "type": "Point",
        "coordinates": [
          136.3338294,
          35.4173191
        ]
      },
      "id": "node/416218853"
    },
    {
      "type": "Feature",
      "properties": {
        "@id": "node/416218855",
        "amenity": "place_of_worship",
        "name": "轟神社",
        "religion": "shinto"
      },
      "geometry": {
        "type": "Point",
        "coordinates": [
          136.3320562,
          35.4149041
        ]
      },
      "id": "node/416218855"
    },
    {
      "type": "Feature",
      "properties": {
        "@id": "node/416778314",
        "amenity": "place_of_worship",
        "name": "平方天満宮",
        "religion": "shinto"
      },
      "geometry": {
        "type": "Point",
        "coordinates": [
          136.272985,
          35.3693674
        ]
      },
      "id": "node/416778314"
    },
    {
      "type": "Feature",
      "properties": {
        "@id": "node/416778341",
        "amenity": "place_of_worship",
        "name": "神明神社",
        "religion": "shinto"
      },
      "geometry": {
        "type": "Point",
        "coordinates": [
          136.2854024,
          35.3710622
        ]
      },
      "id": "node/416778341"
    },
    {
      "type": "Feature",
      "properties": {
        "@id": "node/416847015",
        "amenity": "place_of_worship",
        "name": "都久夫須麻神社",
        "religion": "shinto"
      },
      "geometry": {
        "type": "Point",
        "coordinates": [
          136.2630516,
          35.3877082
        ]
      },
      "id": "node/416847015"
    },
    {
      "type": "Feature",
      "properties": {
        "@id": "node/416847017",
        "amenity": "place_of_worship",
        "name": "相撲神社",
        "religion": "shinto"
      },
      "geometry": {
        "type": "Point",
        "coordinates": [
          136.2523029,
          35.3920458
        ]
      },
      "id": "node/416847017"
    },
    {
      "type": "Feature",
      "properties": {
        "@id": "node/418997227",
        "amenity": "place_of_worship",
        "name": "鶴ヶ城稲荷神社",
        "name:en": "Tsurugajo Inari Jinja Shrine",
        "name:ja-Latn": "Tsurugajo Inari Jinja",
        "religion": "shinto",
        "wheelchair": "no"
      },
      "geometry": {
        "type": "Point",
        "coordinates": [
          139.9300734,
          37.4884433
        ]
      },
      "id": "node/418997227"
    },
    {
      "type": "Feature",
      "properties": {
        "@id": "node/419537832",
        "amenity": "place_of_worship",
        "name": "八幡神社",
        "religion": "shinto"
      },
      "geometry": {
        "type": "Point",
        "coordinates": [
          136.2925237,
          35.4360826
        ]
      },
      "id": "node/419537832"
    },
    {
      "type": "Feature",
      "properties": {
        "@id": "node/419537833",
        "amenity": "place_of_worship",
        "name": "秋葉神社",
        "religion": "shinto"
      },
      "geometry": {
        "type": "Point",
        "coordinates": [
          136.2977417,
          35.4351541
        ]
      },
      "id": "node/419537833"
    },
    {
      "type": "Feature",
      "properties": {
        "@id": "node/419537837",
        "amenity": "place_of_worship",
        "name": "伊豆神社",
        "religion": "shinto"
      },
      "geometry": {
        "type": "Point",
        "coordinates": [
          136.2405374,
          35.4450974
        ]
      },
      "id": "node/419537837"
    },
    {
      "type": "Feature",
      "properties": {
        "@id": "node/419604562",
        "amenity": "place_of_worship",
        "name": "春日神社",
        "religion": "shinto"
      },
      "geometry": {
        "type": "Point",
        "coordinates": [
          136.3444779,
          35.3666602
        ]
      },
      "id": "node/419604562"
    },
    {
      "type": "Feature",
      "properties": {
        "@id": "node/419604564",
        "amenity": "place_of_worship",
        "name": "天満神社",
        "religion": "shinto"
      },
      "geometry": {
        "type": "Point",
        "coordinates": [
          136.3702616,
          35.3751513
        ]
      },
      "id": "node/419604564"
    },
    {
      "type": "Feature",
      "properties": {
        "@id": "node/419645039",
        "amenity": "place_of_worship",
        "name": "八幡神社",
        "religion": "shinto"
      },
      "geometry": {
        "type": "Point",
        "coordinates": [
          134.5436861,
          33.9681483
        ]
      },
      "id": "node/419645039"
    },
    {
      "type": "Feature",
      "properties": {
        "@id": "node/419764831",
        "amenity": "place_of_worship",
        "name": "岩船神社",
        "religion": "shinto"
      },
      "geometry": {
        "type": "Point",
        "coordinates": [
          134.4776939,
          33.9147422
        ]
      },
      "id": "node/419764831"
    },
    {
      "type": "Feature",
      "properties": {
        "@id": "node/419765877",
        "amenity": "place_of_worship",
        "religion": "shinto"
      },
      "geometry": {
        "type": "Point",
        "coordinates": [
          134.4573882,
          33.8882777
        ]
      },
      "id": "node/419765877"
    },
    {
      "type": "Feature",
      "properties": {
        "@id": "node/419766600",
        "amenity": "place_of_worship",
        "name": "秋葉神社",
        "religion": "shinto"
      },
      "geometry": {
        "type": "Point",
        "coordinates": [
          134.4384851,
          33.9219585
        ]
      },
      "id": "node/419766600"
    },
    {
      "type": "Feature",
      "properties": {
        "@id": "node/420025705",
        "amenity": "place_of_worship",
        "name": "八幡神社",
        "religion": "shinto"
      },
      "geometry": {
        "type": "Point",
        "coordinates": [
          136.2726874,
          35.4350195
        ]
      },
      "id": "node/420025705"
    },
    {
      "type": "Feature",
      "properties": {
        "@id": "node/420025706",
        "amenity": "place_of_worship",
        "name": "北野神社",
        "religion": "shinto"
      },
      "geometry": {
        "type": "Point",
        "coordinates": [
          136.3180676,
          35.4200905
        ]
      },
      "id": "node/420025706"
    },
    {
      "type": "Feature",
      "properties": {
        "@id": "node/420052617",
        "amenity": "place_of_worship",
        "name": "忍海神社",
        "religion": "shinto"
      },
      "geometry": {
        "type": "Point",
        "coordinates": [
          136.2875673,
          35.3608362
        ]
      },
      "id": "node/420052617"
    },
    {
      "type": "Feature",
      "properties": {
        "@id": "node/420052620",
        "amenity": "place_of_worship",
        "name": "春日神社",
        "religion": "shinto"
      },
      "geometry": {
        "type": "Point",
        "coordinates": [
          136.3013982,
          35.377508
        ]
      },
      "id": "node/420052620"
    },
    {
      "type": "Feature",
      "properties": {
        "@id": "node/420052621",
        "amenity": "place_of_worship",
        "name": "八坂神社",
        "religion": "shinto"
      },
      "geometry": {
        "type": "Point",
        "coordinates": [
          136.2992658,
          35.3709353
        ]
      },
      "id": "node/420052621"
    },
    {
      "type": "Feature",
      "properties": {
        "@id": "node/420052622",
        "amenity": "place_of_worship",
        "name": "足柄神社",
        "religion": "shinto"
      },
      "geometry": {
        "type": "Point",
        "coordinates": [
          136.3132144,
          35.388245
        ]
      },
      "id": "node/420052622"
    },
    {
      "type": "Feature",
      "properties": {
        "@id": "node/420052623",
        "amenity": "place_of_worship",
        "name": "日吉神社",
        "religion": "shinto"
      },
      "geometry": {
        "type": "Point",
        "coordinates": [
          136.3234847,
          35.3891133
        ]
      },
      "id": "node/420052623"
    },
    {
      "type": "Feature",
      "properties": {
        "@id": "node/420456676",
        "amenity": "place_of_worship",
        "name": "錦織神社",
        "religion": "shinto"
      },
      "geometry": {
        "type": "Point",
        "coordinates": [
          136.241461,
          35.4154656
        ]
      },
      "id": "node/420456676"
    },
    {
      "type": "Feature",
      "properties": {
        "@id": "node/420456677",
        "amenity": "place_of_worship",
        "name": "八幡神社",
        "religion": "shinto"
      },
      "geometry": {
        "type": "Point",
        "coordinates": [
          136.2275759,
          35.3926871
        ]
      },
      "id": "node/420456677"
    },
    {
      "type": "Feature",
      "properties": {
        "@id": "node/420456678",
        "amenity": "place_of_worship",
        "name": "和田神社",
        "religion": "shinto"
      },
      "geometry": {
        "type": "Point",
        "coordinates": [
          136.2242028,
          35.387349
        ]
      },
      "id": "node/420456678"
    },
    {
      "type": "Feature",
      "properties": {
        "@id": "node/420456681",
        "amenity": "place_of_worship",
        "name": "熊岡神社",
        "religion": "shinto"
      },
      "geometry": {
        "type": "Point",
        "coordinates": [
          136.3153755,
          35.3664091
        ]
      },
      "id": "node/420456681"
    },
    {
      "type": "Feature",
      "properties": {
        "@id": "node/426577169",
        "amenity": "place_of_worship",
        "name": "石切劔箭神社（石切神社）上之宮",
        "religion": "shinto"
      },
      "geometry": {
        "type": "Point",
        "coordinates": [
          135.6567073,
          34.6820713
        ]
      },
      "id": "node/426577169"
    },
    {
      "type": "Feature",
      "properties": {
        "@id": "node/426589731",
        "amenity": "place_of_worship",
        "name": "流岡神社",
        "religion": "shinto"
      },
      "geometry": {
        "type": "Point",
        "coordinates": [
          136.3170769,
          35.4106019
        ]
      },
      "id": "node/426589731"
    },
    {
      "type": "Feature",
      "properties": {
        "@id": "node/426589742",
        "amenity": "place_of_worship",
        "name": "八幡神社",
        "religion": "shinto"
      },
      "geometry": {
        "type": "Point",
        "coordinates": [
          136.3346835,
          35.3988654
        ]
      },
      "id": "node/426589742"
    },
    {
      "type": "Feature",
      "properties": {
        "@id": "node/426589743",
        "amenity": "place_of_worship",
        "name": "若宮八幡神社",
        "religion": "shinto"
      },
      "geometry": {
        "type": "Point",
        "coordinates": [
          136.3574782,
          35.3958718
        ]
      },
      "id": "node/426589743"
    },
    {
      "type": "Feature",
      "properties": {
        "@id": "node/426589746",
        "amenity": "place_of_worship",
        "name": "天満宮",
        "religion": "shinto"
      },
      "geometry": {
        "type": "Point",
        "coordinates": [
          136.2890854,
          35.3990106
        ]
      },
      "id": "node/426589746"
    },
    {
      "type": "Feature",
      "properties": {
        "@id": "node/426589748",
        "amenity": "place_of_worship",
        "name": "天満宮",
        "religion": "shinto"
      },
      "geometry": {
        "type": "Point",
        "coordinates": [
          136.2836042,
          35.3918777
        ]
      },
      "id": "node/426589748"
    },
    {
      "type": "Feature",
      "properties": {
        "@id": "node/426589751",
        "amenity": "place_of_worship",
        "name": "日吉神社",
        "religion": "shinto"
      },
      "geometry": {
        "type": "Point",
        "coordinates": [
          136.2891619,
          35.3935371
        ]
      },
      "id": "node/426589751"
    },
    {
      "type": "Feature",
      "properties": {
        "@id": "node/426674224",
        "amenity": "place_of_worship",
        "name": "石切劔箭神社",
        "religion": "shinto"
      },
      "geometry": {
        "type": "Point",
        "coordinates": [
          135.6461208,
          34.6822398
        ]
      },
      "id": "node/426674224"
    },
    {
      "type": "Feature",
      "properties": {
        "@id": "node/427883860",
        "amenity": "place_of_worship",
        "name": "福徳稲荷神社",
        "religion": "shinto"
      },
      "geometry": {
        "type": "Point",
        "coordinates": [
          140.104011,
          37.9097051
        ]
      },
      "id": "node/427883860"
    },
    {
      "type": "Feature",
      "properties": {
        "@id": "node/427893000",
        "amenity": "place_of_worship",
        "name": "芝東照宮",
        "name:en": "Shiba Toshogu",
        "name:es": "Shiba Toshogu",
        "name:fr": "Shiba Toshogu",
        "religion": "shinto",
        "wikidata": "Q11614668",
        "wikipedia": "ja:芝東照宮"
      },
      "geometry": {
        "type": "Point",
        "coordinates": [
          139.7487871,
          35.6548825
        ]
      },
      "id": "node/427893000"
    },
    {
      "type": "Feature",
      "properties": {
        "@id": "node/428219206",
        "amenity": "place_of_worship",
        "name": "白旗神社",
        "religion": "shinto"
      },
      "geometry": {
        "type": "Point",
        "coordinates": [
          139.5571168,
          35.3254437
        ]
      },
      "id": "node/428219206"
    },
    {
      "type": "Feature",
      "properties": {
        "@id": "node/428219216",
        "amenity": "place_of_worship",
        "name": "旗上弁財天社",
        "religion": "shinto"
      },
      "geometry": {
        "type": "Point",
        "coordinates": [
          139.5559589,
          35.3239063
        ]
      },
      "id": "node/428219216"
    },
    {
      "type": "Feature",
      "properties": {
        "@id": "node/429419255",
        "amenity": "place_of_worship",
        "name": "笠間稲荷神社",
        "name:en": "Kasama Inari Jinja Shrine",
        "name:ja-Latn": "Kasama Inari Jinja",
        "religion": "shinto",
        "wheelchair": "no"
      },
      "geometry": {
        "type": "Point",
        "coordinates": [
          139.9289058,
          37.487395
        ]
      },
      "id": "node/429419255"
    },
    {
      "type": "Feature",
      "properties": {
        "@id": "node/429910370",
        "amenity": "place_of_worship",
        "name": "古矢真神社",
        "religion": "shinto"
      },
      "geometry": {
        "type": "Point",
        "coordinates": [
          136.2757945,
          35.4426383
        ]
      },
      "id": "node/429910370"
    },
    {
      "type": "Feature",
      "properties": {
        "@id": "node/429910373",
        "amenity": "place_of_worship",
        "name": "清水神社",
        "religion": "shinto"
      },
      "geometry": {
        "type": "Point",
        "coordinates": [
          136.2676389,
          35.4515244
        ]
      },
      "id": "node/429910373"
    },
    {
      "type": "Feature",
      "properties": {
        "@id": "node/429910378",
        "amenity": "place_of_worship",
        "name": "走落神社",
        "religion": "shinto"
      },
      "geometry": {
        "type": "Point",
        "coordinates": [
          136.2514891,
          35.4710731
        ]
      },
      "id": "node/429910378"
    },
    {
      "type": "Feature",
      "properties": {
        "@id": "node/429910380",
        "amenity": "place_of_worship",
        "name": "天川神社",
        "religion": "shinto"
      },
      "geometry": {
        "type": "Point",
        "coordinates": [
          136.2433025,
          35.4870543
        ]
      },
      "id": "node/429910380"
    },
    {
      "type": "Feature",
      "properties": {
        "@id": "node/429910385",
        "amenity": "place_of_worship",
        "name": "等波神社",
        "religion": "shinto"
      },
      "geometry": {
        "type": "Point",
        "coordinates": [
          136.2366058,
          35.4962853
        ]
      },
      "id": "node/429910385"
    },
    {
      "type": "Feature",
      "properties": {
        "@id": "node/429910393",
        "amenity": "place_of_worship",
        "name": "丹生神社",
        "religion": "shinto"
      },
      "geometry": {
        "type": "Point",
        "coordinates": [
          136.2338236,
          35.5640899
        ]
      },
      "id": "node/429910393"
    },
    {
      "type": "Feature",
      "properties": {
        "@id": "node/429910395",
        "amenity": "place_of_worship",
        "name": "六所神社",
        "religion": "shinto"
      },
      "geometry": {
        "type": "Point",
        "coordinates": [
          136.2276874,
          35.5970667
        ]
      },
      "id": "node/429910395"
    },
    {
      "type": "Feature",
      "properties": {
        "@id": "node/429910409",
        "amenity": "place_of_worship",
        "name": "三輪神社",
        "religion": "shinto"
      },
      "geometry": {
        "type": "Point",
        "coordinates": [
          136.2895902,
          35.4754852
        ]
      },
      "id": "node/429910409"
    },
    {
      "type": "Feature",
      "properties": {
        "@id": "node/430150149",
        "amenity": "place_of_worship",
        "name": "鹿島神社",
        "religion": "shinto"
      },
      "geometry": {
        "type": "Point",
        "coordinates": [
          139.4441875,
          35.5391735
        ]
      },
      "id": "node/430150149"
    },
    {
      "type": "Feature",
      "properties": {
        "@id": "node/432845374",
        "amenity": "place_of_worship",
        "name": "春日神社 (Kasuga-jinja Shrine)",
        "religion": "shinto"
      },
      "geometry": {
        "type": "Point",
        "coordinates": [
          135.7936801,
          34.7814557
        ]
      },
      "id": "node/432845374"
    },
    {
      "type": "Feature",
      "properties": {
        "@id": "node/433664946",
        "amenity": "place_of_worship",
        "name": "南大谷 天神社",
        "religion": "shinto"
      },
      "geometry": {
        "type": "Point",
        "coordinates": [
          139.4602487,
          35.5551572
        ]
      },
      "id": "node/433664946"
    },
    {
      "type": "Feature",
      "properties": {
        "@id": "node/434337567",
        "amenity": "place_of_worship",
        "name": "玉作神社",
        "religion": "shinto"
      },
      "geometry": {
        "type": "Point",
        "coordinates": [
          136.2253664,
          35.4930228
        ]
      },
      "id": "node/434337567"
    },
    {
      "type": "Feature",
      "properties": {
        "@id": "node/434337577",
        "amenity": "place_of_worship",
        "name": "石作神社",
        "religion": "shinto"
      },
      "geometry": {
        "type": "Point",
        "coordinates": [
          136.2253477,
          35.4930861
        ]
      },
      "id": "node/434337577"
    },
    {
      "type": "Feature",
      "properties": {
        "@id": "node/434843556",
        "amenity": "place_of_worship",
        "name": "神高槻神社",
        "religion": "shinto"
      },
      "geometry": {
        "type": "Point",
        "coordinates": [
          136.2395966,
          35.4697339
        ]
      },
      "id": "node/434843556"
    },
    {
      "type": "Feature",
      "properties": {
        "@id": "node/434843560",
        "amenity": "place_of_worship",
        "name": "八幡神社",
        "religion": "shinto"
      },
      "geometry": {
        "type": "Point",
        "coordinates": [
          136.2086472,
          35.4677382
        ]
      },
      "id": "node/434843560"
    },
    {
      "type": "Feature",
      "properties": {
        "@id": "node/440009152",
        "amenity": "place_of_worship",
        "name": "神明神社",
        "religion": "shinto"
      },
      "geometry": {
        "type": "Point",
        "coordinates": [
          136.2652903,
          35.3952048
        ]
      },
      "id": "node/440009152"
    },
    {
      "type": "Feature",
      "properties": {
        "@id": "node/440069983",
        "amenity": "place_of_worship",
        "name": "白山神社",
        "religion": "shinto"
      },
      "geometry": {
        "type": "Point",
        "coordinates": [
          139.6371362,
          35.6868871
        ]
      },
      "id": "node/440069983"
    },
    {
      "type": "Feature",
      "properties": {
        "@id": "node/440673012",
        "amenity": "place_of_worship",
        "name": "第六天神社",
        "religion": "shinto"
      },
      "geometry": {
        "type": "Point",
        "coordinates": [
          139.6122282,
          35.6788511
        ]
      },
      "id": "node/440673012"
    },
    {
      "type": "Feature",
      "properties": {
        "@id": "node/441158627",
        "amenity": "place_of_worship",
        "name": "御霊神社",
        "name:en": "Goryo Shrine",
        "name:ja": "御霊神社",
        "name:ja-Latn": "Goryō jinja",
        "religion": "shinto",
        "source": "Bing,2008-03; survey"
      },
      "geometry": {
        "type": "Point",
        "coordinates": [
          135.4807706,
          34.6703005
        ]
      },
      "id": "node/441158627"
    },
    {
      "type": "Feature",
      "properties": {
        "@id": "node/443397545",
        "amenity": "place_of_worship",
        "name": "八幡神社",
        "religion": "shinto"
      },
      "geometry": {
        "type": "Point",
        "coordinates": [
          139.6305292,
          35.6756368
        ]
      },
      "id": "node/443397545"
    },
    {
      "type": "Feature",
      "properties": {
        "@id": "node/450637713",
        "amenity": "place_of_worship",
        "name": "榎木大明神",
        "religion": "shinto"
      },
      "geometry": {
        "type": "Point",
        "coordinates": [
          135.5140185,
          34.6762411
        ]
      },
      "id": "node/450637713"
    },
    {
      "type": "Feature",
      "properties": {
        "@id": "node/457655926",
        "amenity": "place_of_worship",
        "name": "五條宮",
        "name:en": "Gojogu Shrine",
        "name:ja": "五條宮",
        "religion": "shinto",
        "source": "Bing 2010",
        "wikidata": "Q11372507",
        "wikipedia": "ja:五條宮"
      },
      "geometry": {
        "type": "Point",
        "coordinates": [
          135.518608,
          34.6570768
        ]
      },
      "id": "node/457655926"
    },
    {
      "type": "Feature",
      "properties": {
        "@id": "node/469088529",
        "amenity": "place_of_worship",
        "name": "蛭子神社",
        "religion": "shinto"
      },
      "geometry": {
        "type": "Point",
        "coordinates": [
          136.2736567,
          35.3315753
        ]
      },
      "id": "node/469088529"
    },
    {
      "type": "Feature",
      "properties": {
        "@id": "node/469088530",
        "amenity": "place_of_worship",
        "name": "朝妻神社",
        "religion": "shinto"
      },
      "geometry": {
        "type": "Point",
        "coordinates": [
          136.2726625,
          35.3288174
        ]
      },
      "id": "node/469088530"
    },
    {
      "type": "Feature",
      "properties": {
        "@id": "node/469088531",
        "amenity": "place_of_worship",
        "name": "春日神社",
        "religion": "shinto"
      },
      "geometry": {
        "type": "Point",
        "coordinates": [
          136.2747042,
          35.3348776
        ]
      },
      "id": "node/469088531"
    },
    {
      "type": "Feature",
      "properties": {
        "@id": "node/469088532",
        "amenity": "place_of_worship",
        "name": "中嶋神社",
        "religion": "shinto"
      },
      "geometry": {
        "type": "Point",
        "coordinates": [
          136.2712077,
          35.3265456
        ]
      },
      "id": "node/469088532"
    },
    {
      "type": "Feature",
      "properties": {
        "@id": "node/469173451",
        "amenity": "place_of_worship",
        "name": "息栖神社",
        "religion": "shinto"
      },
      "geometry": {
        "type": "Point",
        "coordinates": [
          140.457097,
          37.7221748
        ]
      },
      "id": "node/469173451"
    },
    {
      "type": "Feature",
      "properties": {
        "@id": "node/473535391",
        "amenity": "place_of_worship",
        "name": "羽根木神社",
        "religion": "shinto"
      },
      "geometry": {
        "type": "Point",
        "coordinates": [
          139.6576868,
          35.6682406
        ]
      },
      "id": "node/473535391"
    },
    {
      "type": "Feature",
      "properties": {
        "@id": "node/475809213",
        "access": "yes",
        "historic": "yes",
        "man_made": "torii",
        "note": "鳥居",
        "religion": "shinto"
      },
      "geometry": {
        "type": "Point",
        "coordinates": [
          135.7841808,
          35.0091421
        ]
      },
      "id": "node/475809213"
    },
    {
      "type": "Feature",
      "properties": {
        "@id": "node/476114017",
        "amenity": "place_of_worship",
        "name": "八阪神社",
        "name:en": "Yasaka-jinja Shrine",
        "name:ja": "八阪神社",
        "religion": "shinto"
      },
      "geometry": {
        "type": "Point",
        "coordinates": [
          135.5380377,
          34.675427
        ]
      },
      "id": "node/476114017"
    },
    {
      "type": "Feature",
      "properties": {
        "@id": "node/476270446",
        "amenity": "place_of_worship",
        "name": "八幡神社",
        "religion": "shinto"
      },
      "geometry": {
        "type": "Point",
        "coordinates": [
          136.3073454,
          35.391673
        ]
      },
      "id": "node/476270446"
    },
    {
      "type": "Feature",
      "properties": {
        "@id": "node/477074706",
        "amenity": "place_of_worship",
        "name": "八王子神社",
        "name:en": "Hachiōji Shrine",
        "name:ja": "八王子神社",
        "religion": "shinto"
      },
      "geometry": {
        "type": "Point",
        "coordinates": [
          135.5396327,
          34.6773013
        ]
      },
      "id": "node/477074706"
    },
    {
      "type": "Feature",
      "properties": {
        "@id": "node/477197831",
        "amenity": "place_of_worship",
        "name": "豊島神社",
        "religion": "shinto"
      },
      "geometry": {
        "type": "Point",
        "coordinates": [
          136.3046167,
          35.3569716
        ]
      },
      "id": "node/477197831"
    },
    {
      "type": "Feature",
      "properties": {
        "@id": "node/477498733",
        "amenity": "place_of_worship",
        "religion": "shinto"
      },
      "geometry": {
        "type": "Point",
        "coordinates": [
          139.6239814,
          35.6134998
        ]
      },
      "id": "node/477498733"
    },
    {
      "type": "Feature",
      "properties": {
        "@id": "node/480835382",
        "amenity": "place_of_worship",
        "name": "永福稲荷神社",
        "religion": "shinto"
      },
      "geometry": {
        "type": "Point",
        "coordinates": [
          139.6428235,
          35.6725708
        ]
      },
      "id": "node/480835382"
    },
    {
      "type": "Feature",
      "properties": {
        "@id": "node/494087411",
        "amenity": "place_of_worship",
        "denomination": "konkokyo",
        "name": "金光教松戸教会",
        "name:ja_rm": "Konkokyo Matsudo Kyokai",
        "religion": "shinto"
      },
      "geometry": {
        "type": "Point",
        "coordinates": [
          139.9251795,
          35.7751433
        ]
      },
      "id": "node/494087411"
    },
    {
      "type": "Feature",
      "properties": {
        "@id": "node/495915604",
        "amenity": "place_of_worship",
        "denomination": "天満宮",
        "name": "鞍岡神社",
        "religion": "shinto"
      },
      "geometry": {
        "type": "Point",
        "coordinates": [
          135.786268,
          34.7766021
        ]
      },
      "id": "node/495915604"
    },
    {
      "type": "Feature",
      "properties": {
        "@id": "node/498674953",
        "amenity": "place_of_worship",
        "name": "岩屋神社 (Iwaya-jinja Shrine)",
        "name:en": "Iwaya-jinja Shrine",
        "name:ja": "岩屋神社",
        "name:ja_rm": "Iwaya Jinja",
        "religion": "shinto"
      },
      "geometry": {
        "type": "Point",
        "coordinates": [
          134.9881276,
          34.6437152
        ]
      },
      "id": "node/498674953"
    },
    {
      "type": "Feature",
      "properties": {
        "@id": "node/501613811",
        "amenity": "place_of_worship",
        "ele": "58.0000000",
        "name": "雷神宮天満宮",
        "name:ja_rm": "Raijingu Tenmangu",
        "religion": "shinto"
      },
      "geometry": {
        "type": "Point",
        "coordinates": [
          139.9180099,
          35.7859545
        ]
      },
      "id": "node/501613811"
    },
    {
      "type": "Feature",
      "properties": {
        "@id": "node/503896649",
        "amenity": "place_of_worship",
        "name": "明治神社",
        "name:en": "Meiji Shrine",
        "name:ja_kana": "めいじじんぐう",
        "name:ja_rm": "Meiji Jinguu",
        "phone": "+81 3 3379 5511",
        "religion": "shinto"
      },
      "geometry": {
        "type": "Point",
        "coordinates": [
          139.9154772,
          35.7973248
        ]
      },
      "id": "node/503896649"
    },
    {
      "type": "Feature",
      "properties": {
        "@id": "node/506072245",
        "amenity": "place_of_worship",
        "religion": "shinto"
      },
      "geometry": {
        "type": "Point",
        "coordinates": [
          136.2701219,
          35.3944579
        ]
      },
      "id": "node/506072245"
    },
    {
      "type": "Feature",
      "properties": {
        "@id": "node/506214950",
        "amenity": "place_of_worship",
        "name": "真島稲荷神社",
        "name:en": "Maijima Inari Shrine",
        "religion": "shinto"
      },
      "geometry": {
        "type": "Point",
        "coordinates": [
          139.7658882,
          35.721003
        ]
      },
      "id": "node/506214950"
    },
    {
      "type": "Feature",
      "properties": {
        "@id": "node/508262049",
        "amenity": "place_of_worship",
        "name": "稲荷神社",
        "religion": "shinto"
      },
      "geometry": {
        "type": "Point",
        "coordinates": [
          136.2969381,
          35.3285714
        ]
      },
      "id": "node/508262049"
    },
    {
      "type": "Feature",
      "properties": {
        "@id": "node/508262724",
        "amenity": "place_of_worship",
        "name": "西羅神社",
        "religion": "shinto"
      },
      "geometry": {
        "type": "Point",
        "coordinates": [
          136.3241557,
          35.3233927
        ]
      },
      "id": "node/508262724"
    },
    {
      "type": "Feature",
      "properties": {
        "@id": "node/509951572",
        "amenity": "place_of_worship",
        "name": "結城神社 (Yuki shurine)",
        "religion": "shinto"
      },
      "geometry": {
        "type": "Point",
        "coordinates": [
          136.5148,
          34.6978105
        ]
      },
      "id": "node/509951572"
    },
    {
      "type": "Feature",
      "properties": {
        "@id": "node/510115765",
        "amenity": "place_of_worship",
        "religion": "shinto"
      },
      "geometry": {
        "type": "Point",
        "coordinates": [
          136.2940553,
          35.3487706
        ]
      },
      "id": "node/510115765"
    },
    {
      "type": "Feature",
      "properties": {
        "@id": "node/510115961",
        "amenity": "place_of_worship",
        "name": "日撫神社",
        "religion": "shinto"
      },
      "geometry": {
        "type": "Point",
        "coordinates": [
          136.3077998,
          35.3389627
        ]
      },
      "id": "node/510115961"
    },
    {
      "type": "Feature",
      "properties": {
        "@id": "node/510306097",
        "amenity": "place_of_worship",
        "name": "八幡神社",
        "religion": "shinto"
      },
      "geometry": {
        "type": "Point",
        "coordinates": [
          136.3034288,
          35.3335812
        ]
      },
      "id": "node/510306097"
    },
    {
      "type": "Feature",
      "properties": {
        "@id": "node/510306112",
        "amenity": "place_of_worship",
        "name": "足柄神社",
        "religion": "shinto"
      },
      "geometry": {
        "type": "Point",
        "coordinates": [
          136.3153846,
          35.3728541
        ]
      },
      "id": "node/510306112"
    },
    {
      "type": "Feature",
      "properties": {
        "@id": "node/518477628",
        "amenity": "place_of_worship",
        "name": "松先稲荷神社",
        "name:en": "Massaki Inari Shrine",
        "name:ja_kana": "マッサキイナリジンジャ",
        "name:ja_rm": "Massaki Inari Jinja",
        "religion": "shinto"
      },
      "geometry": {
        "type": "Point",
        "coordinates": [
          139.8982578,
          35.7816883
        ]
      },
      "id": "node/518477628"
    },
    {
      "type": "Feature",
      "properties": {
        "@id": "node/520090484",
        "amenity": "place_of_worship",
        "name": "水神宮",
        "name:en": "Suishingu",
        "name:ja": "水神宮",
        "name:ja_rm": "Suisingu",
        "religion": "shinto"
      },
      "geometry": {
        "type": "Point",
        "coordinates": [
          139.912659,
          35.7757118
        ]
      },
      "id": "node/520090484"
    },
    {
      "type": "Feature",
      "properties": {
        "@id": "node/525360707",
        "amenity": "place_of_worship",
        "name": "春日神社",
        "name:en": "Kasuga Shrine",
        "religion": "shinto"
      },
      "geometry": {
        "type": "Point",
        "coordinates": [
          139.9132222,
          35.7899428
        ]
      },
      "id": "node/525360707"
    },
    {
      "type": "Feature",
      "properties": {
        "@id": "node/525365367",
        "amenity": "place_of_worship",
        "name": "白鬚神社",
        "religion": "shinto"
      },
      "geometry": {
        "type": "Point",
        "coordinates": [
          136.0108225,
          35.2746572
        ]
      },
      "id": "node/525365367"
    },
    {
      "type": "Feature",
      "properties": {
        "@id": "node/527811832",
        "amenity": "place_of_worship",
        "name": "日吉神社",
        "religion": "shinto"
      },
      "geometry": {
        "type": "Point",
        "coordinates": [
          136.2933087,
          35.3865865
        ]
      },
      "id": "node/527811832"
    },
    {
      "type": "Feature",
      "properties": {
        "@id": "node/527811953",
        "amenity": "place_of_worship",
        "name": "天満神社",
        "religion": "shinto"
      },
      "geometry": {
        "type": "Point",
        "coordinates": [
          136.3043283,
          35.3816223
        ]
      },
      "id": "node/527811953"
    },
    {
      "type": "Feature",
      "properties": {
        "@id": "node/527820626",
        "amenity": "place_of_worship",
        "name": "みのり神社 (Minori Shrine)",
        "religion": "shinto"
      },
      "geometry": {
        "type": "Point",
        "coordinates": [
          139.934078,
          35.7866255
        ]
      },
      "id": "node/527820626"
    },
    {
      "type": "Feature",
      "properties": {
        "@id": "node/527820628",
        "amenity": "place_of_worship",
        "name": "熊野神社 (Kumano Shrine)",
        "religion": "shinto"
      },
      "geometry": {
        "type": "Point",
        "coordinates": [
          139.9415889,
          35.7840946
        ]
      },
      "id": "node/527820628"
    },
    {
      "type": "Feature",
      "properties": {
        "@id": "node/528518892",
        "amenity": "place_of_worship",
        "name": "山住神社",
        "religion": "shinto"
      },
      "geometry": {
        "type": "Point",
        "coordinates": [
          137.9143074,
          35.1354935
        ]
      },
      "id": "node/528518892"
    },
    {
      "type": "Feature",
      "properties": {
        "@id": "node/529286959",
        "amenity": "place_of_worship",
        "name": "日前神社",
        "religion": "shinto"
      },
      "geometry": {
        "type": "Point",
        "coordinates": [
          136.2614253,
          35.4199153
        ]
      },
      "id": "node/529286959"
    },
    {
      "type": "Feature",
      "properties": {
        "@id": "node/529287359",
        "amenity": "place_of_worship",
        "name": "矢合神社",
        "religion": "shinto"
      },
      "geometry": {
        "type": "Point",
        "coordinates": [
          136.2604532,
          35.4327032
        ]
      },
      "id": "node/529287359"
    },
    {
      "type": "Feature",
      "properties": {
        "@id": "node/529751239",
        "amenity": "place_of_worship",
        "name": "狸坂大明神",
        "name:en": "Tanukizaka-daimyojin Shrine",
        "religion": "shinto"
      },
      "geometry": {
        "type": "Point",
        "coordinates": [
          135.5128388,
          34.678057
        ]
      },
      "id": "node/529751239"
    },
    {
      "type": "Feature",
      "properties": {
        "@id": "node/534043685",
        "amenity": "place_of_worship",
        "name": "櫛田神社",
        "name:en": "Kushida Shrine",
        "name:ko": "쿠시다신사",
        "opening_hours": "Mo-Su 04:00-22:00",
        "religion": "shinto",
        "wikidata": "Q865839",
        "wikipedia": "en:Kushida Shrine"
      },
      "geometry": {
        "type": "Point",
        "coordinates": [
          130.4104551,
          33.5929775
        ]
      },
      "id": "node/534043685"
    },
    {
      "type": "Feature",
      "properties": {
        "@id": "node/534088248",
        "amenity": "place_of_worship",
        "building": "yes",
        "religion": "shinto"
      },
      "geometry": {
        "type": "Point",
        "coordinates": [
          139.6185907,
          35.6226842
        ]
      },
      "id": "node/534088248"
    },
    {
      "type": "Feature",
      "properties": {
        "@id": "node/534487778",
        "amenity": "place_of_worship",
        "name": "神社",
        "religion": "shinto"
      },
      "geometry": {
        "type": "Point",
        "coordinates": [
          138.9533677,
          37.3279343
        ]
      },
      "id": "node/534487778"
    },
    {
      "type": "Feature",
      "properties": {
        "@id": "node/534502395",
        "amenity": "place_of_worship",
        "name": "八坂神社",
        "religion": "shinto"
      },
      "geometry": {
        "type": "Point",
        "coordinates": [
          136.2695016,
          35.405588
        ]
      },
      "id": "node/534502395"
    },
    {
      "type": "Feature",
      "properties": {
        "@id": "node/534529040",
        "amenity": "place_of_worship",
        "name": "河姫稲荷神社",
        "religion": "shinto"
      },
      "geometry": {
        "type": "Point",
        "coordinates": [
          136.2660449,
          35.3845628
        ]
      },
      "id": "node/534529040"
    },
    {
      "type": "Feature",
      "properties": {
        "@id": "node/547773354",
        "amenity": "place_of_worship",
        "name": "伏石神社",
        "religion": "shinto"
      },
      "geometry": {
        "type": "Point",
        "coordinates": [
          134.051919,
          34.3117752
        ]
      },
      "id": "node/547773354"
    },
    {
      "type": "Feature",
      "properties": {
        "@id": "node/552697551",
        "amenity": "place_of_worship",
        "name": "三輪里稲荷神社 （こんにゃく稲荷）",
        "religion": "shinto",
        "wheelchair": "limited"
      },
      "geometry": {
        "type": "Point",
        "coordinates": [
          139.8263812,
          35.7204468
        ]
      },
      "id": "node/552697551"
    },
    {
      "type": "Feature",
      "properties": {
        "@id": "node/558753158",
        "amenity": "place_of_worship",
        "name": "小根本神明神社",
        "name:en": "Shinmei Shrine",
        "religion": "shinto",
        "wheelchair": "no"
      },
      "geometry": {
        "type": "Point",
        "coordinates": [
          139.9029126,
          35.7866357
        ]
      },
      "id": "node/558753158"
    },
    {
      "type": "Feature",
      "properties": {
        "@id": "node/559398471",
        "amenity": "place_of_worship",
        "name": "すくもづか稲荷神社",
        "name:en": "Sukumoduka Inari Shrine",
        "name:ja_rm": "Sukumoduka Inari Jinja",
        "religion": "shinto"
      },
      "geometry": {
        "type": "Point",
        "coordinates": [
          139.8982186,
          35.7838843
        ]
      },
      "id": "node/559398471"
    },
    {
      "type": "Feature",
      "properties": {
        "@id": "node/563674244",
        "amenity": "place_of_worship",
        "name": "多田神社",
        "name:ja": "多田神社",
        "religion": "shinto",
        "source": "Bing 2010"
      },
      "geometry": {
        "type": "Point",
        "coordinates": [
          139.6637755,
          35.6832633
        ]
      },
      "id": "node/563674244"
    },
    {
      "type": "Feature",
      "properties": {
        "@id": "node/564635693",
        "amenity": "place_of_worship",
        "name": "金山神社",
        "religion": "shinto"
      },
      "geometry": {
        "type": "Point",
        "coordinates": [
          134.0504345,
          34.3315976
        ]
      },
      "id": "node/564635693"
    },
    {
      "type": "Feature",
      "properties": {
        "@id": "node/567790160",
        "amenity": "place_of_worship",
        "name": "八幡神社",
        "religion": "shinto"
      },
      "geometry": {
        "type": "Point",
        "coordinates": [
          136.325351,
          35.3951299
        ]
      },
      "id": "node/567790160"
    },
    {
      "type": "Feature",
      "properties": {
        "@id": "node/567790205",
        "amenity": "place_of_worship",
        "name": "天満神社",
        "religion": "shinto"
      },
      "geometry": {
        "type": "Point",
        "coordinates": [
          136.3307733,
          35.4032453
        ]
      },
      "id": "node/567790205"
    },
    {
      "type": "Feature",
      "properties": {
        "@id": "node/570591117",
        "amenity": "place_of_worship",
        "religion": "shinto"
      },
      "geometry": {
        "type": "Point",
        "coordinates": [
          138.9672376,
          37.8833354
        ]
      },
      "id": "node/570591117"
    },
    {
      "type": "Feature",
      "properties": {
        "@id": "node/573247652",
        "amenity": "place_of_worship",
        "name": "八幡神社",
        "religion": "shinto"
      },
      "geometry": {
        "type": "Point",
        "coordinates": [
          136.4684192,
          35.3629311
        ]
      },
      "id": "node/573247652"
    },
    {
      "type": "Feature",
      "properties": {
        "@id": "node/573247687",
        "amenity": "place_of_worship",
        "name": "北野神社",
        "religion": "shinto"
      },
      "geometry": {
        "type": "Point",
        "coordinates": [
          136.4697477,
          35.3703361
        ]
      },
      "id": "node/573247687"
    },
    {
      "type": "Feature",
      "properties": {
        "@id": "node/573731381",
        "amenity": "place_of_worship",
        "name": "金刀比羅神社",
        "religion": "shinto"
      },
      "geometry": {
        "type": "Point",
        "coordinates": [
          136.470796,
          35.3692456
        ]
      },
      "id": "node/573731381"
    },
    {
      "type": "Feature",
      "properties": {
        "@id": "node/582295994",
        "amenity": "place_of_worship",
        "religion": "shinto"
      },
      "geometry": {
        "type": "Point",
        "coordinates": [
          135.062027,
          35.2881511
        ]
      },
      "id": "node/582295994"
    },
    {
      "type": "Feature",
      "properties": {
        "@id": "node/585053115",
        "amenity": "place_of_worship",
        "religion": "shinto"
      },
      "geometry": {
        "type": "Point",
        "coordinates": [
          142.3759185,
          43.766007
        ]
      },
      "id": "node/585053115"
    },
    {
      "type": "Feature",
      "properties": {
        "@id": "node/595517161",
        "amenity": "place_of_worship",
        "name": "宮地嶽神社",
        "name:en": "Miyajidake Shrine",
        "name:ja": "宮地嶽神社",
        "religion": "shinto",
        "wikidata": "Q3317296",
        "wikipedia": "en:Miyajidake Shrine"
      },
      "geometry": {
        "type": "Point",
        "coordinates": [
          130.4860813,
          33.7800346
        ]
      },
      "id": "node/595517161"
    },
    {
      "type": "Feature",
      "properties": {
        "@id": "node/596530902",
        "amenity": "place_of_worship",
        "name": "櫛田神社浜宮",
        "name:ko": "신사",
        "religion": "shinto"
      },
      "geometry": {
        "type": "Point",
        "coordinates": [
          130.3968926,
          33.6053824
        ]
      },
      "id": "node/596530902"
    },
    {
      "type": "Feature",
      "properties": {
        "@id": "node/598176845",
        "amenity": "place_of_worship",
        "name": "尾崎熊野神社",
        "religion": "shinto"
      },
      "geometry": {
        "type": "Point",
        "coordinates": [
          139.631288,
          35.6936042
        ]
      },
      "id": "node/598176845"
    },
    {
      "type": "Feature",
      "properties": {
        "@id": "node/600683956",
        "amenity": "place_of_worship",
        "name": "飯守神社",
        "religion": "shinto"
      },
      "geometry": {
        "type": "Point",
        "coordinates": [
          139.4598846,
          35.6022635
        ]
      },
      "id": "node/600683956"
    },
    {
      "type": "Feature",
      "properties": {
        "@id": "node/601279516",
        "amenity": "place_of_worship",
        "name": "松井神社",
        "religion": "shinto"
      },
      "geometry": {
        "type": "Point",
        "coordinates": [
          134.1336043,
          34.3512169
        ]
      },
      "id": "node/601279516"
    },
    {
      "type": "Feature",
      "properties": {
        "@id": "node/601290631",
        "amenity": "place_of_worship",
        "name": "栄稲荷神社",
        "religion": "shinto"
      },
      "geometry": {
        "type": "Point",
        "coordinates": [
          133.8199115,
          34.1899909
        ]
      },
      "id": "node/601290631"
    },
    {
      "type": "Feature",
      "properties": {
        "@id": "node/601359579",
        "amenity": "place_of_worship",
        "name": "八幡宮",
        "religion": "shinto"
      },
      "geometry": {
        "type": "Point",
        "coordinates": [
          134.2880907,
          33.5475021
        ]
      },
      "id": "node/601359579"
    },
    {
      "type": "Feature",
      "properties": {
        "@id": "node/601374768",
        "amenity": "place_of_worship",
        "name": "築港八幡宮",
        "religion": "shinto"
      },
      "geometry": {
        "type": "Point",
        "coordinates": [
          133.9514319,
          34.4951133
        ]
      },